{
    "locations":[
        {
            "title": "Anexo de Ingeniería",
            "subtitle": "1",
            "latitud": 19.3250715,
            "longitud": -99.1841346,
            "photo": "pin2"
        },
        {
            "title": "Museo Universitario de Ciencias y Arte - MUCA",
            "subtitle": "2",
            "latitud": 19.3310297,
            "longitud": -99.1876568,
            "photo": "pin2"
        },
        {
            "title": "Facultad de Ciencias",
            "subtitle": "3",
            "latitud": 19.3238522,
            "longitud": -99.1801877,
            "photo": "pin2"
        },
        {
            "title": "Facultad de Química",
            "subtitle": "4",
            "latitud": 19.3232377,
            "longitud": -99.1792637,
            "photo": "pin2"
        },
        {
            "title": "Metro CU",
            "subtitle": "5",
            "latitud": 19.3240189,
            "longitud": -99.1748546,
            "photo": "pin2"
        },
        {
            "title": "Escuela Nacional de Trabajo Social",
            "subtitle": "6",
            "latitud": 19.323764,
            "longitud": -99.1868045,
            "photo": "pin2"
        },
        {
            "title": "Facultad de Contaduria y Administracion",
            "subtitle": "7",
            "latitud": 19.3240978,
            "longitud": -99.1846067,
            "photo": "pin2"
        },
        {
            "title": "Nike Store Pumas",
            "subtitle": "8",
            "latitud": 19.3333944,
            "longitud": -99.1948631,
            "photo": "pin2"
        },
        {
            "title": "Instituto de Investigaciones Biomédicas",
            "subtitle": "9",
            "latitud": 19.3232747,
            "longitud": -99.1913721,
            "photo": "pin2"
        },
        {
            "title": "Estadio Olimpico Universitario",
            "subtitle": "10",
            "latitud": 19.3316385,
            "longitud": -99.1917423,
            "photo": "pin2"
        },
        {
            "title": "Rectoria de la UNAM",
            "subtitle": "11",
            "latitud": 19.3319492,
            "longitud": -99.1886188,
            "photo": "pin2"
        },
        {
            "title": "Facultad de Psicología",
            "subtitle": "12",
            "latitud": 19.334838,
            "longitud": -99.188834,
            "photo": "pin2"
        },
        {
            "title": "Facultad de Filosofía y Letras",
            "subtitle": "13",
            "latitud": 19.3344593,
            "longitud": -99.1864938,
            "photo": "pin2"
        },
        {
            "title": "Facultad de Derecho",
            "subtitle": "14",
            "latitud": 19.3346575,
            "longitud": -99.1849516,
            "photo": "pin2"
        },
        {
            "title": "Facultad de Odontología",
            "subtitle": "15",
            "latitud": 19.3342901,
            "longitud": -99.1816082,
            "photo": "pin2"
        },
        {
            "title": "Facultad de Medicina",
            "subtitle": "16",
            "latitud": 19.3331143,
            "longitud": -99.1802108,
            "photo": "pin2"
        },
        {
            "title": "Tienda UNAM",
            "subtitle": "17",
            "latitud": 19.3209543,
            "longitud": -99.175467,
            "photo": "pin2"
        },
        {
            "title": "Facultad de Ciencias Políticas y Sociales",
            "subtitle": "18",
            "latitud": 19.3185994,
            "longitud": -99.1781057,
            "photo": "pin2"
        },
        {
            "title": "Universum",
            "subtitle": "19",
            "latitud": 19.3117873,
            "longitud": -99.1803843,
            "photo": "pin2"
        },
        {
            "title": "Facultad de Economía",
            "subtitle": "20",
            "latitud": 19.3347811,
            "longitud": -99.1834828,
            "photo": "pin2"
        }
    ]
}


